City_ID,City,Lat,Lng,Max Temp,Humidity,Cloudiness,Wind Speed,Country,Date
0,chul'man,56.8479,124.9104,7.67,80,100,3.58,RU,1727405691
1,olonkinbyen,70.9221,-8.7187,-1.53,94,100,12.55,SJ,1727405692
2,blackmans bay,-43.0167,147.3167,15.96,53,21,1.53,AU,1727405693
3,hasaki,35.7333,140.8333,24.35,88,100,4.99,JP,1727405694
4,college,64.8569,-147.8028,6.99,80,75,2.57,US,1727405696
5,mugia,43.1041,-9.2179,15.51,72,70,8.81,ES,1727405697
6,petropavlovsk-kamchatsky,53.0452,158.6483,15.33,44,0,6.0,RU,1727405698
7,morondava,-20.2833,44.2833,22.36,80,0,2.13,MG,1727405699
8,bukoba,-1.3317,31.8122,19.85,76,23,1.74,TZ,1727405700
9,gaalkacyo,6.7697,47.4308,23.76,66,100,6.73,SO,1727405701
10,priyutnoye,46.1011,43.5072,13.48,59,100,6.86,RU,1727405702
11,adamstown,-25.066,-130.1015,21.52,89,86,4.12,PN,1727405703
12,isafjordur,66.0755,-23.124,1.53,97,100,2.75,IS,1727405704
13,george town,5.4112,100.3354,30.96,78,20,1.54,MY,1727405468
14,waitangi,-43.9535,-176.5597,9.34,88,98,4.47,NZ,1727405707
15,vorgashor,67.5833,63.95,6.07,99,99,4.72,RU,1727405708
16,khandyga,62.6667,135.6,13.07,54,100,4.05,RU,1727405709
17,ribeira grande,38.5167,-28.7,23.76,85,97,6.71,PT,1727405710
18,bilibino,68.0546,166.4372,-2.16,74,99,1.04,RU,1727405711
19,maisi,43.0395,41.2621,13.55,63,100,2.09,GE,1727405713
20,butte,39.6499,-121.5677,27.01,40,0,0.0,US,1727405714
21,bikenibeu village,1.3673,173.1241,31.98,58,20,3.6,KI,1727405715
22,ushuaia,-54.8,-68.3,4.81,81,75,11.32,AR,1727405498
23,bethel,41.3712,-73.414,21.68,89,100,0.45,US,1727405717
24,takhtamukay,44.9215,38.9958,15.51,78,0,1.0,RU,1727405719
25,sao gabriel da cachoeira,-0.1303,-67.0892,22.56,100,100,0.59,BR,1727405594
26,puerto ayora,-0.7393,-90.3518,20.31,95,100,2.68,EC,1727405721
27,klerksdorp,-26.8521,26.6667,12.53,27,60,0.3,ZA,1727405722
28,hawaiian paradise park,19.5933,-154.9731,26.04,82,100,4.12,US,1727405723
29,udachny,66.4167,112.4,3.32,69,75,2.84,RU,1727405724
30,dryden,49.7833,-92.7503,21.16,64,0,4.12,CA,1727405726
31,hohhot,40.8106,111.6522,17.16,72,20,1.0,CN,1727405571
32,kristiansund,63.1115,7.732,7.36,87,100,5.14,NO,1727405729
33,chernomorskoye,45.5039,32.6997,19.92,75,82,2.1,UA,1727405730
34,manokwari,-0.8667,134.0833,29.37,65,39,4.93,ID,1727405731
35,banda aceh,5.5577,95.3222,28.99,70,99,1.04,ID,1727405732
36,genhe,50.7833,121.5167,18.71,32,100,3.42,CN,1727405733
37,weno,7.4515,151.8468,28.97,84,100,2.06,FM,1727405734
38,ushtobe,45.2514,77.9838,9.01,37,0,6.37,KZ,1727405735
39,thompson,55.7435,-97.8558,21.09,64,75,3.09,CA,1727405737
40,nicoya,10.1483,-85.452,23.75,94,100,1.11,CR,1727405738
41,loango,-4.6719,11.8312,23.78,88,94,2.11,CG,1727405739
42,bardai,11.65,7.2333,22.57,84,80,2.91,NG,1727405740
43,albany,42.6001,-73.9662,17.23,81,100,1.28,US,1727405663
44,aykhal,66.0,111.5,1.12,76,93,3.71,RU,1727405742
45,yellowknife,62.456,-114.3525,8.29,92,75,2.57,CA,1727405744
46,talnakh,69.4865,88.3972,1.4,95,100,3.46,RU,1727405745
47,port alfred,-33.5906,26.891,13.43,95,36,1.48,ZA,1727405653
48,island harbour,50.724,-1.2758,12.18,93,100,2.68,GB,1727405747
49,port-aux-francais,-49.35,70.2167,3.99,82,100,17.0,TF,1727405748
50,kulhudhuffushi,6.6221,73.07,27.73,76,100,5.75,MV,1727405749
51,klyuchi,52.2667,79.1667,5.55,56,90,4.2,RU,1727405750
52,jamestown,42.097,-79.2353,17.8,83,40,2.57,US,1727405565
53,nuuk,64.1835,-51.7216,7.34,65,27,3.6,GL,1727405753
54,tiksi,71.6872,128.8694,0.95,100,100,5.43,RU,1727405754
55,mahina,-17.5065,-149.489,27.87,78,20,3.6,PF,1727405755
56,parry sound,45.3501,-80.033,15.03,94,53,1.77,CA,1727405756
57,mount gambier,-37.8333,140.7667,18.06,35,0,1.27,AU,1727405757
58,san antonio de pale,-1.4014,5.6325,24.93,84,100,5.18,GQ,1727405759
59,ust'-kut,56.7938,105.7672,7.05,42,9,1.19,RU,1727405760
60,puerto natales,-51.7236,-72.4875,5.2,92,100,5.25,CL,1727405761
61,los osos,35.3111,-120.8324,17.22,90,20,0.89,US,1727405763
62,arraial do cabo,-22.9661,-42.0278,23.05,83,0,14.82,BR,1727405764
63,puerto san jose,13.9256,-90.8244,25.84,87,79,4.91,GT,1727405765
64,holualoa,19.6228,-155.9522,25.91,85,75,3.09,US,1727405766
65,inhambane,-23.865,35.3833,20.85,79,5,3.8,MZ,1727405768
66,edinburgh of the seven seas,-37.0676,-12.3116,12.14,91,100,4.25,SH,1727405769
67,cide,41.8921,33.0044,19.24,60,3,2.28,TR,1727405770
68,yamethin,20.4333,96.15,27.81,79,71,1.33,MM,1727405771
69,whitehorse,60.7161,-135.0538,7.43,65,40,2.57,CA,1727405772
70,utrik,11.2278,169.8474,28.74,76,100,6.0,MH,1727405774
71,praia da vitoria,38.7333,-27.0667,22.14,78,40,2.28,PT,1727405777
72,cabo san lucas,22.8909,-109.9124,27.64,65,0,6.71,MX,1727405778
73,selkirk,50.1436,-96.8845,25.1,30,0,5.87,CA,1727405780
74,bredasdorp,-34.5322,20.0403,13.13,90,96,0.72,ZA,1727405782
75,haimen,23.1935,116.6142,28.51,81,17,4.08,CN,1727405783
76,colonia,50.9333,6.95,14.42,73,0,3.6,DE,1727405646
77,wailua homesteads,22.0669,-159.378,28.44,73,20,5.14,US,1727405786
78,port mathurin,-19.6833,63.4167,22.25,77,7,8.59,MU,1727405787
79,vikhorevka,56.1201,101.1636,4.68,61,100,1.99,RU,1727405788
80,margaret river,-33.95,115.0667,13.68,65,61,7.07,AU,1727405789
81,as sulayyil,20.4607,45.5779,26.84,21,52,2.75,SA,1727405790
82,guerrero negro,27.9769,-114.0611,18.86,89,1,8.15,MX,1727405553
83,kaifeng,34.7911,114.3483,23.73,70,100,4.27,CN,1727405792
84,murud,18.3258,72.965,25.93,87,100,6.63,IN,1727405793
85,hawkesbury,45.6001,-74.616,13.08,87,33,2.68,CA,1727405794
86,grytviken,-54.2811,-36.5092,-1.37,76,59,8.13,GS,1727405796
87,khash,28.2211,61.2158,22.0,31,0,1.82,IR,1727405797
88,suva,-18.1416,178.4415,27.71,57,40,4.63,FJ,1727405798
89,west island,-12.1568,96.8225,27.99,74,75,4.12,CC,1727405800
90,puerto aysen,-45.4,-72.7,3.33,98,100,2.01,CL,1727405801
91,port lincoln,-34.7333,135.8667,16.01,54,28,7.76,AU,1727405802
92,chapada dos guimaraes,-15.4606,-55.7497,29.44,22,34,2.62,BR,1727405803
93,westport,41.1415,-73.3579,22.53,90,100,1.54,US,1727405805
94,myitkyina,25.3833,97.4,25.91,87,96,0.83,MM,1727405806
95,qaqortoq,60.7167,-46.0333,4.42,85,15,3.94,GL,1727405807
96,kolonia town,6.964,158.206,32.06,79,75,2.57,FM,1727405808
97,hermanus,-34.4187,19.2345,13.78,91,83,2.23,ZA,1727405653
98,amahai,-3.3333,128.9167,28.13,75,56,3.78,ID,1727405810
99,keflavik,64.0049,-22.5624,6.24,81,75,1.54,IS,1727405811
100,lincheng,19.9078,109.6858,29.03,75,64,1.42,CN,1727405812
101,zarghun shahr,32.8473,68.4457,18.31,34,0,2.42,AF,1727405813
102,havza,40.9706,35.6622,10.34,93,0,0.0,TR,1727405815
103,peterhead,57.5058,-1.7981,9.37,68,96,12.84,GB,1727405816
104,hithadhoo,-0.6,73.0833,28.13,73,100,6.46,MV,1727405817
105,avarua,-21.2078,-159.775,23.03,64,40,3.6,CK,1727405818
106,afaahiti,-17.75,-149.2833,25.3,81,22,4.24,PF,1727405819
107,enewetak,11.3474,162.3373,28.89,75,21,5.36,MH,1727405820
108,papatowai,-46.5619,169.4708,7.06,87,95,7.01,NZ,1727405821
109,arkadelphia,34.1209,-93.0538,19.01,62,7,1.6,US,1727405565
110,port augusta,-32.5,137.7667,24.59,14,0,5.71,AU,1727405823
111,georgetown,5.4112,100.3354,30.96,78,20,1.54,MY,1727405825
112,isola di capo rizzuto,38.96,17.0933,22.24,48,0,2.12,IT,1727405826
113,villa ojo de agua,-29.5,-63.6938,11.4,48,0,1.53,AR,1727405827
114,iqaluit,63.7506,-68.5145,3.85,93,75,0.0,CA,1727405828
115,hauterive,46.0901,3.4459,13.16,77,50,4.83,FR,1727405829
116,ratnagiri,16.9833,73.3,27.52,83,99,5.75,IN,1727405830
117,arkalyk,50.2486,66.9114,5.65,48,9,1.6,KZ,1727405832
118,timimoun,29.2639,0.231,27.21,39,0,2.06,DZ,1727405833
119,touros,-5.1989,-35.4608,24.56,78,26,6.74,BR,1727405835
120,vila velha,-20.3297,-40.2925,23.97,82,75,5.81,BR,1727405836
121,minas de marcona,-15.2119,-75.1103,11.05,87,89,4.21,PE,1727405837
122,susuman,62.7833,148.1667,7.95,50,2,1.46,RU,1727405838
123,ambon,-3.6954,128.1814,30.08,74,40,3.09,ID,1727405839
124,hamilton,39.1834,-84.5333,20.79,93,100,5.14,US,1727405586
125,bom jesus da lapa,-13.255,-43.4181,26.22,35,0,3.39,BR,1727405842
126,nizhnesortymskiy,62.4397,71.7603,2.98,85,100,5.47,RU,1727405844
127,badger,64.8,-147.5333,6.95,81,75,2.57,US,1727405845
128,sao miguel,-5.4667,-35.3667,24.18,81,58,6.81,BR,1727405846
129,anadyr,64.75,177.4833,4.28,64,100,2.0,RU,1727405847
130,atafu village,-8.5421,-172.5159,25.18,92,100,7.63,TK,1727405848
131,olinda,-8.0089,-34.8553,25.85,73,40,4.63,BR,1727405849
132,howard springs,-12.497,131.047,32.77,68,35,0.87,AU,1727405850
133,ilulissat,69.2167,-51.1,2.78,62,99,2.55,GL,1727405852
134,apatity,67.5641,33.4031,7.5,91,100,4.86,RU,1727405853
135,elko,41.0002,-115.5012,20.68,20,0,2.68,US,1727405755
136,madaba,31.5833,35.6667,23.15,57,0,1.85,JO,1727405856
137,la ronge,55.1001,-105.2842,9.14,81,40,3.6,CA,1727405857
138,saipan,15.1355,145.701,28.39,83,75,5.14,MP,1727405858
139,mokhotlong,-29.2894,29.0675,5.92,41,85,0.77,LS,1727405859
140,kavaratti,10.5669,72.642,27.45,82,100,6.4,IN,1727405860
141,invercargill,-46.4,168.35,6.68,91,100,4.02,NZ,1727405443
142,st. john's,47.5649,-52.7093,11.65,97,100,3.13,CA,1727405851
143,flying fish cove,-10.4217,105.6791,26.82,78,75,4.63,CX,1727405719
144,port macquarie,-31.4333,152.9167,15.04,85,100,0.89,AU,1727405865
145,stanley,54.868,-1.6985,9.04,84,20,7.72,GB,1727405626
146,choibalsan,48.0667,114.5,13.99,63,100,3.78,MN,1727405867
147,aksu,41.1231,80.2644,21.76,36,78,2.77,CN,1727405869
148,la'ie,21.6477,-157.9253,29.98,69,83,4.83,US,1727405870
149,midvagur,62.0511,-7.1939,4.46,87,75,8.23,FO,1727405871
150,meadow lake,34.8014,-106.5436,23.69,30,0,1.08,US,1727405872
151,ad dabbah,18.05,30.95,30.32,22,92,3.53,SD,1727405873
152,nemuro,43.3236,145.575,16.76,96,100,5.28,JP,1727405875
153,carolina,18.3808,-65.9574,28.28,88,100,0.45,PR,1727405702
154,le port,-20.9373,55.2919,22.16,93,60,3.57,RE,1727405877
155,libreville,0.3925,9.4537,24.19,91,99,3.37,GA,1727405878
156,hotan,37.0997,79.9269,25.35,18,3,5.06,CN,1727405880
157,yorkton,51.2167,-102.4677,14.91,63,0,8.23,CA,1727405881
158,benoy,8.9833,16.3199,22.26,95,100,1.12,TD,1727405883
159,uturoa,-16.7333,-151.4333,26.67,78,8,4.1,PF,1727405884
160,lahaina,20.8783,-156.6825,28.33,73,100,4.07,US,1727405885
161,maintirano,-18.0667,44.0167,23.29,79,0,1.01,MG,1727405886
162,orting,47.0979,-122.2043,18.88,64,100,1.46,US,1727405887
163,coahuayana de hidalgo,18.7,-103.6583,22.93,94,100,1.85,MX,1727405889
164,tura,25.5198,90.2201,23.76,94,100,1.03,IN,1727405890
165,sinop,41.7711,34.8709,15.18,81,1,1.77,TR,1727405891
166,turpan,42.9333,89.1667,22.78,32,95,2.51,CN,1727405892
167,zhangye,38.9342,100.4517,22.37,26,2,7.82,CN,1727405895
168,thunder bay,48.4001,-89.3168,14.99,100,0,2.57,CA,1727405873
169,zastron,-30.3023,27.084,7.68,42,96,1.23,ZA,1727405897
170,damietta,31.4165,31.8133,24.73,66,0,2.84,EG,1727405898
171,pontes e lacerda,-15.2261,-59.3353,28.65,47,22,3.6,BR,1727405699
172,ingeniero jacobacci,-41.3427,-69.5448,9.99,27,100,3.52,AR,1727405901
173,beira,-19.8436,34.8389,21.05,83,40,2.06,MZ,1727405902
174,castillos,-34.1667,-53.8333,13.16,94,100,2.32,UY,1727405903
175,melito di porto salvo,37.9222,15.7714,21.28,68,0,3.09,IT,1727405904
176,argo,37.6333,22.7333,21.85,59,0,1.55,GR,1727405905
177,labrador city,52.9463,-66.9114,10.1,80,75,4.92,CA,1727405906
178,isangel,-19.55,169.2667,28.06,57,40,5.66,VU,1727405907
179,tabou,4.423,-7.3528,24.36,91,99,3.28,CI,1727405908
180,alice springs,-23.7,133.8833,24.75,27,0,5.14,AU,1727405910
181,farasan,16.7022,42.1183,30.63,77,2,1.61,SA,1727405911
182,zouerate,22.7187,-12.4521,29.08,42,100,6.72,MR,1727405912
183,najran,17.4924,44.1277,21.47,28,51,1.42,SA,1727405883
184,joshua tree,34.1347,-116.3131,30.25,17,0,2.68,US,1727405914
185,chippewa falls,44.9369,-91.3929,17.77,86,0,0.0,US,1727405915
186,taki,22.5861,88.9214,28.99,82,93,5.07,IN,1727405917
187,codrington,-38.2667,141.9667,15.54,52,0,2.0,AU,1727405918
188,mirnyy,62.5353,113.9611,3.42,83,100,3.32,RU,1727405919
189,dudinka,69.4058,86.1778,-0.11,89,100,4.38,RU,1727405920
190,puerto leguizamo,-0.1934,-74.7819,23.96,87,100,1.41,CO,1727405922
191,enriquillo,17.9,-71.2333,25.74,88,3,3.6,DO,1727405923
192,antalaha,-14.9003,50.2788,19.83,80,4,2.97,MG,1727405924
193,ampanihy,-24.7,44.75,20.27,76,0,2.3,MG,1727405925
194,ak-dovurak,51.1833,90.6,3.47,45,100,0.86,RU,1727405927
195,kyaikkami,16.08,97.5675,27.59,79,36,1.53,MM,1727405928
196,ciudad lazaro cardenas,17.9583,-102.2,23.8,91,100,11.31,MX,1727405929
197,waiuku,-37.25,174.75,13.81,66,100,4.54,NZ,1727405930
198,awjilah,29.1081,21.2869,23.78,60,0,3.69,LY,1727405931
199,andergrove,-21.0833,149.1833,24.34,71,99,4.84,AU,1727405932
200,santanyi,39.3546,3.1291,23.7,81,49,5.63,ES,1727405933
201,porbandar,21.6422,69.6093,28.04,79,99,5.99,IN,1727405934
202,longyearbyen,78.2186,15.6401,-0.09,64,75,8.75,SJ,1727405935
203,lagunas,-5.2269,-75.6753,28.8,50,88,0.95,PE,1727405937
204,charters towers,-20.1,146.2667,30.28,36,99,5.79,AU,1727405938
205,faya-largeau,17.9257,19.1043,32.44,23,0,7.61,TD,1727405940
206,kununurra,-15.7667,128.7333,33.99,49,20,4.12,AU,1727405942
207,manly,-33.798,151.2883,16.65,72,75,8.75,AU,1727405680
208,nuku'alofa,-21.1333,-175.2,25.19,78,20,6.69,TO,1727405945
209,harnosand,62.6323,17.9379,4.0,78,100,5.99,SE,1727405946
210,amherst,41.3978,-82.2224,19.85,86,100,1.34,US,1727405854
211,harper,4.375,-7.7169,24.49,91,98,3.3,LR,1727405948
212,soio,-6.1349,12.3689,23.92,87,83,3.13,AO,1727405949
213,rio grande,-32.035,-52.0986,15.65,92,100,6.82,BR,1727405950
214,suwayr,30.1171,40.3893,25.81,31,0,3.58,SA,1727405953
215,quellon,-43.1167,-73.6167,4.95,84,100,2.14,CL,1727405954
216,simanggang,1.2472,111.4528,25.99,94,40,0.51,MY,1727405955
217,kingston,17.997,-76.7936,28.53,79,20,4.12,JM,1727405651
218,kavieng,-2.5744,150.7967,28.66,72,50,0.91,PG,1727405957
219,itoman,26.1247,127.6694,32.21,73,20,7.72,JP,1727405958
220,taksimo,56.3444,114.8794,6.44,59,12,1.73,RU,1727405959
221,nyagan,62.1406,65.3936,6.62,96,98,2.13,RU,1727405961
222,wuyang,31.9925,116.2472,26.5,67,99,5.02,CN,1727405817
223,akobo,7.4344,3.9497,21.48,99,97,1.44,NG,1727405963
224,vorkuta,67.5,64.0,6.16,99,99,4.83,RU,1727405964
225,virpur,23.1833,73.4833,27.29,86,100,4.59,IN,1727405966
226,shahrud,36.4182,54.9763,15.06,66,0,5.1,IR,1727405967
227,mejit,10.2753,170.8646,28.55,76,71,5.27,MH,1727405969
228,cobija,-11.0267,-68.7692,25.31,64,24,0.54,BO,1727405970
229,tazacorte,28.629,-17.9293,21.54,90,0,4.12,ES,1727405973
230,lo prado,-33.4443,-70.7255,16.9,53,99,0.52,CL,1727405974
231,torghay,49.6339,63.4981,7.69,39,8,1.4,KZ,1727405975
232,pacific grove,36.6177,-121.9166,15.82,93,40,2.06,US,1727405976
233,plastun,44.7561,136.2939,19.39,44,0,2.65,RU,1727405978
234,penon blanco,24.7897,-104.0369,19.4,51,0,3.05,MX,1727405979
235,new norfolk,-42.7826,147.0587,16.62,36,33,1.85,AU,1727405980
236,kita,13.0349,-9.4895,21.48,95,100,0.65,ML,1727405981
237,agat village,13.3886,144.6585,31.52,80,40,3.09,GU,1727405982
238,laguna,38.421,-121.4238,25.58,50,0,2.06,US,1727405984
239,coquimbo,-29.9533,-71.3436,12.85,87,0,2.57,CL,1727405936
240,chonchi,-42.6128,-73.8092,5.62,93,100,1.09,CL,1727405987
241,uvinza,-5.1036,30.3911,21.69,47,88,1.37,TZ,1727405989
242,siwa oasis,29.2041,25.5195,24.28,57,0,2.54,EG,1727405990
243,korla,41.7597,86.1469,21.65,30,94,9.49,CN,1727405991
244,beichengqu,40.4394,113.1536,17.05,67,85,6.34,CN,1727405992
245,akarsu,37.2355,41.0607,21.19,29,0,3.44,TR,1727405720
246,vila franca do campo,37.7167,-25.4333,21.23,80,97,2.22,PT,1727405995
247,quatre cocos,-20.2078,57.7625,21.72,67,95,7.68,MU,1727405714
248,port elizabeth,-33.918,25.5701,13.16,91,0,1.03,ZA,1727405997
249,pizarro,4.9533,-77.366,25.18,88,100,1.13,CO,1727405998
250,ulsteinvik,62.3432,5.8487,8.07,86,100,0.45,NO,1727405999
251,papao,-17.75,-149.55,27.82,76,11,3.09,PF,1727406001
252,port moody,49.283,-122.8526,12.27,83,100,1.79,CA,1727406002
253,ancud,-41.8697,-73.8203,5.66,77,99,4.04,CL,1727406005
254,lihue,21.9789,-159.3672,26.87,78,99,3.53,US,1727406006
255,gizo,-8.103,156.8419,28.8,73,28,0.26,SB,1727406007
256,lensk,60.7253,114.9278,4.5,76,100,4.08,RU,1727406008
257,kuta,-8.7233,115.1723,30.97,74,20,4.12,ID,1727406009
258,miami,25.7743,-80.1937,29.45,83,100,9.26,US,1727405663
259,le vauclin,14.5452,-60.8388,25.03,94,20,2.57,MQ,1727406012
260,taoudenni,22.6783,-3.9836,34.41,23,10,6.55,ML,1727406014
261,shalqar,47.8333,59.6,8.88,40,0,3.1,KZ,1727406016
262,walvis bay,-22.9575,14.5053,14.95,76,66,2.25,NA,1727406018
263,ketchikan,55.3422,-131.6461,9.99,90,100,2.91,US,1727406019
264,igbor,7.4527,8.6098,22.43,98,100,2.23,NG,1727406020
265,egilsstadir,65.2653,-14.3948,0.95,100,75,3.09,IS,1727406021
266,carnarvon,-24.8667,113.6333,20.72,59,100,4.88,AU,1727406022
267,taitung city,22.7583,121.1444,30.15,79,75,2.06,TW,1727406023
268,selfoss,63.9331,-20.9971,2.47,84,92,2.26,IS,1727406024
269,trail,49.0998,-117.7022,14.82,37,58,0.74,CA,1727406025
270,heroica caborca,30.7167,-112.15,30.98,22,0,4.9,MX,1727406027
271,mashhad,36.297,59.6062,15.08,72,75,2.06,IR,1727406028
272,hongseong,36.6009,126.665,24.94,61,35,2.62,KR,1727405977
273,barra de santo antonio,-9.4047,-35.5072,23.99,80,14,4.57,BR,1727406030
274,saint-pierre,-21.3393,55.4781,21.82,73,100,2.57,RE,1727406031
275,labuan bajo,-8.4964,119.8877,29.86,66,8,2.46,ID,1727406032
276,bermejo,-32.8833,-68.8,13.95,44,0,2.06,AR,1727406033
277,north bend,43.4065,-124.2243,13.48,79,4,0.84,US,1727406036
278,gariaband,20.635,82.0614,25.69,90,100,3.5,IN,1727406037
279,brokopondo,4.75,-55.1667,27.42,72,4,5.94,SR,1727406038
280,noosa heads,-26.3833,153.15,18.83,79,100,7.34,AU,1727406039
281,road town,18.4167,-64.6167,28.02,83,40,3.6,VG,1727405966
282,cam pha mines,21.0167,107.3,28.9,66,63,1.95,VN,1727406041
283,fort bragg,35.139,-79.006,24.91,96,100,3.6,US,1727406043
284,dondo,-19.6094,34.7431,21.73,91,2,2.4,MZ,1727406044
285,havre,49.5833,0.3333,11.87,76,40,8.23,FR,1727406045
286,villa gesell,-37.2639,-56.973,9.12,63,0,2.58,AR,1727406046
287,puerto baquerizo moreno,-0.9,-89.6,20.03,88,97,5.11,EC,1727406047
288,artigas,-30.4,-56.4667,14.15,94,95,4.7,UY,1727406002
289,meskiana,35.6306,7.6661,22.15,50,5,3.4,DZ,1727406049
290,saldanha,-33.0117,17.9442,12.03,95,33,4.32,ZA,1727406052
291,kayangel,8.0823,134.7173,28.72,76,5,2.61,PW,1727406053
292,raton,36.9034,-104.4391,18.34,42,0,4.12,US,1727406054
293,sao geraldo do araguaia,-6.4006,-48.555,30.38,42,80,0.33,BR,1727406055
294,happy valley-goose bay,53.3168,-60.3315,8.17,81,20,1.03,CA,1727406056
295,diffa,13.3154,12.6113,28.77,50,8,1.75,NE,1727406057
296,vadso,70.0744,29.7487,6.09,93,75,4.12,NO,1727406058
297,kyshtovka,56.555,76.6271,0.91,68,12,2.2,RU,1727406059
298,itamaraca,-7.7478,-34.8256,23.62,86,81,3.47,BR,1727406061
299,xai-xai,-25.0519,33.6442,20.5,79,39,8.05,MZ,1727406062
300,kailua-kona,19.6406,-155.9956,25.86,96,100,2.77,US,1727406063
301,pirallahi,40.4723,50.333,19.08,55,90,7.4,AZ,1727406064
302,sitka,57.0531,-135.33,8.92,78,99,2.51,US,1727406065
303,binkolo,8.9533,-11.9779,21.87,99,100,0.34,SL,1727406066
304,seysses,43.5,1.3167,14.2,88,100,3.09,FR,1727406069
305,callao,-12.0667,-77.15,17.16,77,100,2.06,PE,1727405713
306,kamina,-8.7386,24.9906,20.35,44,48,1.54,CD,1727406071
307,aasiaat,68.7098,-52.8699,1.98,73,100,1.05,GL,1727406072
308,fray luis beltran,-39.3167,-65.7667,16.3,19,100,9.7,AR,1727406073
309,zaozersk,69.4005,32.4476,7.17,92,100,5.3,RU,1727406075
310,mocimboa,-11.3167,40.35,20.66,93,24,1.56,MZ,1727406076
311,illizi,26.4833,8.4667,30.88,28,23,1.49,DZ,1727406064
312,novyy urgal,51.0736,132.5642,14.94,59,82,0.88,RU,1727406078
313,san borja,-14.8167,-66.85,22.28,92,92,4.81,BO,1727406080
314,sao joao da barra,-21.6403,-41.0511,23.2,80,0,13.44,BR,1727406082
315,macapa,0.0389,-51.0664,28.99,79,0,5.66,BR,1727405933
316,kpandae,8.4689,-0.0113,22.91,94,64,2.01,GH,1727406084
317,jawf al maqbabah,13.8378,45.8349,27.92,35,56,1.46,YE,1727406086
318,sumenep,-7.0167,113.8667,31.16,57,63,5.08,ID,1727406087
319,alofi,-19.0595,-169.9187,25.94,61,75,8.23,NU,1727406088
320,hailar,49.2,119.7,18.42,37,76,5.12,CN,1727406090
321,wenchang,30.904,118.4887,28.28,62,0,4.72,CN,1727406092
322,cidreira,-30.1811,-50.2056,16.75,97,100,4.32,BR,1727406093
323,chui,-33.6971,-53.4616,13.92,93,66,3.5,UY,1727406094
324,vernon,50.2581,-119.2691,13.74,63,100,1.03,CA,1727406096
325,boende,-0.2167,20.8667,21.14,96,96,0.94,CD,1727406097
326,jinchang,38.4953,102.1739,23.54,37,0,4.56,CN,1727406098
327,santiago de cao,-7.9589,-79.2392,16.07,94,40,4.12,PE,1727406099
328,kumylzhenskaya,49.8809,42.5898,9.98,46,88,3.95,RU,1727406101
329,constitucion,-35.3333,-72.4167,10.5,76,100,3.42,CL,1727406007
330,tralee,52.2704,-9.7026,9.2,86,99,7.95,IE,1727406074
331,mahibadhoo,3.7833,72.9667,27.7,68,100,7.95,MV,1727406104
332,east london,-33.0153,27.9116,15.15,75,20,1.71,ZA,1727406004
333,bayanhongor,46.7167,100.1167,6.88,64,71,1.0,MN,1727406107
334,el haouaria,37.05,11.0144,25.01,84,4,5.18,TN,1727405987
335,ola,59.5833,151.2833,8.83,69,2,2.84,RU,1727406109
336,bengkulu,-3.8004,102.2655,29.78,66,76,4.06,ID,1727406110
337,portland,45.5234,-122.6762,19.46,73,5,1.34,US,1727405860
338,port saint john's,-31.6229,29.5448,16.11,78,62,3.32,ZA,1727406112
339,fale old settlement,-9.3852,-171.2468,25.34,83,100,3.85,TK,1727406113
340,anloga,5.7947,0.8973,25.21,88,98,4.08,GH,1727406114
341,tarko-sale,64.9225,77.785,0.31,78,89,3.96,RU,1727406115
342,huambo,-12.7761,15.7392,17.89,68,97,1.54,AO,1727406118
343,buka,40.8108,69.1986,16.14,53,100,3.16,UZ,1727406119
344,ust-nera,64.5667,143.2,6.85,65,53,2.05,RU,1727406120
345,cadale,2.7603,46.3222,24.94,85,77,7.54,SO,1727406121
346,canutama,-6.5339,-64.3831,24.72,80,40,1.48,BR,1727406122
347,namibe,-15.1961,12.1522,19.54,92,68,3.49,AO,1727406123
348,zeya,53.75,127.2667,16.69,50,52,5.53,RU,1727406124
349,isla mujeres,21.2311,-86.731,25.65,86,39,3.07,MX,1727406125
350,koungou,-12.7336,45.2042,22.84,88,0,3.09,YT,1727406021
351,pariaman,-0.619,100.12,29.03,73,64,2.14,ID,1727406128
352,apolinario saravia,-24.4328,-63.9954,14.61,67,3,2.13,AR,1727406129
353,brookings,44.3114,-96.7984,20.06,57,0,4.12,US,1727406084
354,nchelenge,-9.3451,28.734,22.01,41,6,2.23,ZM,1727406131
355,chilliwack,49.1747,-121.9443,12.03,96,100,2.57,CA,1727406091
356,nangong,37.3581,115.3744,22.57,61,98,0.93,CN,1727406133
357,kharkhorin,47.1975,102.8238,5.64,88,100,1.77,MN,1727406135
358,remire-montjoly,4.9167,-52.2667,26.02,89,0,0.0,GF,1727406136
359,lincoln,40.8,-96.667,21.27,52,0,2.06,US,1727405944
360,vilyuchinsk,52.9306,158.4028,16.15,66,100,3.38,RU,1727406138
361,carora,10.1755,-70.0827,25.63,76,100,0.84,VE,1727406139
362,ta`u,-14.2336,-169.5144,26.49,79,100,8.75,AS,1727406140
363,malango,-2.9627,119.9001,29.55,47,21,2.31,ID,1727406141
364,kodiak,57.79,-152.4072,6.98,69,98,4.14,US,1727406142
365,selma,36.5708,-119.6121,28.03,50,0,1.54,US,1727406143
366,san patricio,28.017,-97.5169,26.77,41,0,1.26,US,1727406145
367,hailey,43.5196,-114.3153,14.33,49,0,1.34,US,1727406146
368,tionk essil,12.7856,-16.5217,23.63,93,100,1.7,SN,1727406147
369,altinyayla,39.2725,36.751,10.96,58,1,1.1,TR,1727406149
370,bayganin,48.6947,55.8742,9.4,44,0,2.46,KZ,1727406150
371,solwezi,-12.1688,26.3894,15.91,30,2,1.45,ZM,1727406151
372,nkhotakota,-12.9274,34.2961,22.56,58,0,1.03,MW,1727406152
373,omdurman,15.6445,32.4777,31.3,46,69,3.98,SD,1727406153
374,fada,7.25,4.0667,21.83,99,97,0.96,NG,1727406155
375,ribeira brava,32.65,-17.0667,21.35,66,2,1.61,PT,1727406156
376,mossendjo,-2.9506,12.7261,21.1,97,100,1.26,CG,1727406157
377,mar del plata,-38.0023,-57.5575,9.37,77,0,1.34,AR,1727405878
378,wangaratta,-36.3667,146.3333,18.04,53,0,1.6,AU,1727406159
379,thames,-37.1333,175.5333,12.84,70,100,4.7,NZ,1727406160
380,kayyerkan,69.3786,87.7439,0.93,98,100,3.83,RU,1727406161
381,ulladulla,-35.35,150.4667,11.88,74,100,2.92,AU,1727406162
382,khemisset,33.6667,-6.25,20.12,92,98,1.47,MA,1727406165
383,punta arenas,-53.15,-70.9167,5.06,87,75,11.32,CL,1727406157
384,kiruhura,-2.4773,29.7679,17.16,62,17,1.49,RW,1727406168
385,platteville,42.7342,-90.4785,18.41,63,40,3.09,US,1727406169
386,mafinga,-7.25,35.0667,19.06,62,94,1.42,TZ,1727406170
387,hinton,53.4001,-117.5857,7.35,65,99,1.5,CA,1727406171
388,tanda,26.55,82.65,24.04,98,100,5.78,IN,1727406173
389,harstad,68.799,16.5293,4.53,90,100,4.02,NO,1727406174
390,nova sintra,14.8667,-24.7167,26.67,84,100,1.67,CV,1727406175
391,saudarkrokur,65.7461,-19.6394,2.61,97,100,1.08,IS,1727406176
392,xining,36.6167,101.7667,18.6,44,93,0.77,CN,1727406019
393,naga,13.6192,123.1814,30.74,63,100,1.74,PH,1727406178
394,piacabucu,-10.4056,-36.4344,22.66,87,25,3.0,BR,1727406179
395,queenstown,-31.8976,26.8753,8.03,83,38,0.96,ZA,1727406180
396,kirensk,57.7853,108.1119,5.11,62,14,1.7,RU,1727406181
397,talovskiy,51.1144,40.73,12.46,33,98,5.55,RU,1727406183
398,belomorsk,64.5232,34.7668,10.68,97,26,2.74,RU,1727406184
399,anaconda,46.1285,-112.9423,12.2,47,10,1.87,US,1727406185
400,lerwick,60.1545,-1.1494,7.94,69,13,8.91,GB,1727406186
401,mongu,-15.2484,23.1274,19.58,29,76,2.71,ZM,1727406187
402,bhag,29.0415,67.8239,35.47,24,0,2.31,PK,1727406188
403,bam,29.106,58.357,27.88,14,0,2.79,IR,1727406026
404,norfolk,42.1668,-71.2495,17.87,96,100,2.06,US,1727405869
405,saint-louis du nord,19.9333,-72.7167,28.54,82,2,4.36,HT,1727406192
406,aral,40.5156,81.2636,22.79,25,93,8.29,CN,1727406193
407,plettenberg bay,-34.0527,23.3716,13.19,88,1,2.61,ZA,1727406194
408,nadi,-17.8,177.4167,28.0,51,20,7.2,FJ,1727406195
409,cove,7.221,2.3402,22.39,98,89,1.24,BJ,1727406196
410,mzimba,-11.9,33.6,16.95,65,0,3.43,MW,1727406197
411,kapuskasing,49.4169,-82.4331,11.05,100,0,0.0,CA,1727406199
412,spittal an der drau,46.8,13.5,15.65,100,100,1.23,AT,1727406201
413,cova figueira,14.8905,-24.2934,20.9,84,94,1.15,CV,1727406202
414,sandnessjoen,66.0217,12.6316,8.2,63,82,6.15,NO,1727406203
415,las heras,-46.5419,-68.9359,7.55,44,100,12.98,AR,1727406068
416,arroyo,41.6096,-4.7969,12.86,86,40,6.17,ES,1727406205
417,mary,37.0,62.5,17.6,36,0,3.1,TM,1727406207
418,san luis de la loma,17.2706,-100.8939,25.46,93,100,4.59,MX,1727406208
419,geraldton,-28.7667,114.6,17.23,94,75,5.66,AU,1727406093
420,antofagasta,-23.65,-70.4,14.6,86,66,2.45,CL,1727405496
421,belmonte,-15.8631,-38.8828,22.25,78,21,3.13,BR,1727406211
422,hadibu,12.65,54.0333,25.38,84,89,7.55,YE,1727406133
423,at taraf,25.3628,49.725,27.3,21,55,5.15,SA,1727406214
424,mariinsk,56.2139,87.7472,1.49,97,100,2.63,RU,1727406215
425,bei'an,46.4398,126.2373,17.71,53,83,2.0,CN,1727406216
426,esmeraldas,-19.7625,-44.3139,20.85,40,0,3.65,BR,1727405973
427,barah,13.7,30.3667,27.39,61,73,4.9,SD,1727406012
428,akureyri,65.6835,-18.0878,2.96,87,100,2.57,IS,1727406219
429,saint-felicien,48.6501,-72.4491,13.38,100,75,1.54,CA,1727406109
430,lompoc,34.6391,-120.4579,16.5,88,100,2.57,US,1727406224
431,sinabang,2.4803,96.3801,29.32,70,50,1.52,ID,1727406225
432,caibarien,22.5206,-79.4669,26.91,86,100,5.96,CU,1727406226
433,muynoq,43.7683,59.0214,14.25,43,0,7.13,UZ,1727406227
434,cabedelo,-6.9811,-34.8339,24.37,84,80,5.32,BR,1727406164
435,al markaz,25.4,49.7333,27.33,21,53,5.21,SA,1727406229
436,beau vallon,-20.4189,57.6953,21.13,78,40,5.14,MU,1727406230
437,mont-dore,-22.2833,166.5833,27.45,47,79,1.35,NC,1727406231
438,bathsheba,13.2167,-59.5167,26.34,94,40,2.57,BB,1727406232
439,mammoth lakes,37.6485,-118.9721,13.4,21,0,2.06,US,1727406234
440,tabas,33.5959,56.9244,23.83,34,0,4.62,IR,1727406235
441,newport,51.5877,-2.9984,10.13,91,100,8.06,GB,1727406025
442,alaghsas,17.0187,8.0168,31.97,25,28,4.41,NE,1727406237
443,meybod,32.2501,54.0166,20.95,39,0,6.02,IR,1727406186
444,bairnsdale,-37.8333,147.6167,15.59,52,0,0.89,AU,1727406239
445,tabango,11.3077,124.373,28.7,70,82,3.06,PH,1727406240
446,douglas,41.3,-96.167,20.16,66,0,1.54,US,1727406241
447,berezovyy,51.6667,135.7,16.66,57,77,0.94,RU,1727406243
448,porto novo,6.4965,2.6036,24.31,92,75,2.33,BJ,1727406244
449,laojunmiao,39.8333,97.7333,17.38,35,54,2.38,CN,1727406245
450,tolanaro,-25.0319,46.9987,22.04,94,20,1.03,MG,1727406246
451,ascope,-7.7144,-79.1078,19.99,73,69,1.23,PE,1727406248
452,lebu,-37.6167,-73.65,6.35,82,100,2.49,CL,1727406250
453,salalah,17.0151,54.0924,25.96,83,98,2.92,OM,1727406177
454,roccella ionica,38.322,16.4009,23.76,57,0,3.24,IT,1727406252
455,as saffaniyah,27.9708,48.73,28.41,35,0,5.84,SA,1727406253
456,kudymkar,59.0173,54.656,7.72,56,99,4.0,RU,1727406254
457,yesan,36.6776,126.8427,25.19,63,54,2.48,KR,1727406255
458,iskateley,67.6803,53.1512,11.28,91,91,7.75,RU,1727406164
459,palmer,42.1584,-72.3287,18.07,81,100,0.0,US,1727406016
460,stowbtsy,53.4785,26.7434,17.57,72,100,5.3,BY,1727406258
461,tamanrasset,22.785,5.5228,26.95,24,40,2.06,DZ,1727406135
462,barnoldswick,53.9171,-2.1871,9.12,84,100,8.48,GB,1727406261
463,kruisfontein,-34.0033,24.7314,11.06,82,2,1.96,ZA,1727406035
464,nogliki,51.8333,143.1667,12.48,89,99,3.07,RU,1727406263
465,mendi,-6.1761,143.6513,18.06,90,97,1.71,PG,1727406264
466,kone,-21.0595,164.8658,29.18,43,74,1.2,NC,1727406265
467,alotau,-10.3069,150.4462,29.65,68,100,2.44,PG,1727406266
468,mincivan,39.0294,46.7185,15.12,88,96,0.41,AZ,1727406267
469,nizhnyaya tavda,57.6731,66.1725,7.32,87,70,2.57,RU,1727406268
470,newnham,-41.3833,147.1333,15.53,41,9,5.14,AU,1727406269
471,svetlyy,54.675,20.1347,16.71,88,100,7.81,RU,1727406271
472,dunedin,-45.8742,170.5036,8.78,65,100,2.68,NZ,1727406070
473,rongelap,11.1635,166.8941,28.95,74,90,6.68,MH,1727406273
474,amga,60.8953,131.9608,13.48,63,100,3.9,RU,1727406274
475,ekibastuz,51.6667,75.3667,4.22,57,7,5.66,KZ,1727406275
476,tazovsky,67.4667,78.7,-0.36,83,100,5.14,RU,1727406143
477,al jawf,29.5,38.75,24.41,36,0,3.29,SA,1727406277
478,jerantut,3.936,102.3626,26.49,84,100,0.76,MY,1727406278
479,gulu,2.7746,32.299,19.05,88,100,0.81,UG,1727406280
480,baghdad,33.3406,44.4009,24.95,33,0,6.17,IQ,1727406140
481,north platte,41.1239,-100.7654,23.37,46,35,4.02,US,1727405693
482,eastbourne,50.7687,0.2845,11.94,85,100,0.45,GB,1727406283
483,dingzhou,38.5131,114.9956,22.99,57,61,2.28,CN,1727406284
484,schoningen,52.138,10.9675,13.55,78,6,7.7,DE,1727406285
485,tutoia,-2.7619,-42.2744,25.66,84,8,5.12,BR,1727406073
486,tuy hoa,13.0833,109.3,30.25,69,87,2.6,VN,1727406287
487,katabu,-4.9333,122.5167,33.37,47,54,2.76,ID,1727406288
488,porto belo,-27.1578,-48.5531,21.65,97,12,3.88,BR,1727406114
489,massawa,15.6097,39.45,29.61,85,18,2.9,ER,1727406291
490,eyl,7.9803,49.8164,26.01,63,97,7.96,SO,1727406292
491,knyaze-volkonskoye,48.4642,135.4567,16.19,74,96,3.74,RU,1727406293
492,kourou,5.1552,-52.6478,26.9,84,43,3.32,GF,1727406294
493,otwock,52.1058,21.2613,17.8,95,99,2.89,PL,1727406015
494,pandan,14.0453,124.1694,30.06,62,82,3.42,PH,1727406297
495,kigoma,-4.8769,29.6267,21.33,64,0,2.06,TZ,1727406298
496,acapulco de juarez,16.8634,-99.8901,23.22,97,100,8.18,MX,1727406221
497,nihommatsu,37.5833,140.4333,26.73,76,85,1.29,JP,1727406301
498,kitimat,54.0524,-128.6534,7.73,29,100,1.71,CA,1727406302
499,winnemucca,40.973,-117.7357,18.03,22,0,0.0,US,1727406303
500,jurm,36.8648,70.8342,13.87,53,0,1.15,AF,1727406304
501,turochak,52.2576,87.1224,3.58,57,100,1.49,RU,1727406305
502,mamuju,-2.6748,118.8885,30.29,66,44,2.48,ID,1727406306
503,zwedru,6.0667,-8.1281,22.18,100,97,0.94,LR,1727406307
504,mafeteng,-29.823,27.2374,7.53,43,100,0.81,LS,1727406309
505,pocatello,42.8713,-112.4455,19.82,36,0,3.6,US,1727406310
506,acarau,-2.8856,-40.12,25.09,84,29,8.39,BR,1727406312
507,nar'yan-mar,67.6713,53.087,11.27,91,93,7.78,RU,1727406313
508,sierra grande,-41.606,-65.3557,15.5,13,98,7.44,AR,1727406314
509,dzilam gonzalez,21.2833,-88.9333,24.27,95,31,1.21,MX,1727406315
510,kapa'a,22.0752,-159.319,28.18,72,40,6.69,US,1727406317
511,fortaleza,-3.7227,-38.5247,27.07,69,75,8.75,BR,1727405485
512,murghob,38.1702,73.9667,5.53,23,0,5.27,TJ,1727406319
513,quelimane,-17.8786,36.8883,21.97,94,0,1.54,MZ,1727406321
514,chibougamau,49.9168,-74.3659,12.79,100,100,2.06,CA,1727406283
515,las amilpas,16.3667,-94.6167,25.34,89,100,1.82,MX,1727406323
516,greeley,40.4233,-104.7091,24.93,36,0,2.57,US,1727406324
517,morant bay,17.8815,-76.4093,27.06,87,14,1.65,JM,1727406325
518,kardla,58.9978,22.7492,14.99,94,75,4.12,EE,1727406326
519,kirando,-7.4167,30.6,25.3,47,19,1.55,TZ,1727406327
520,pingliang,35.5392,106.6861,21.05,63,93,6.05,CN,1727406328
521,uliastay,47.7417,96.8444,6.77,69,100,1.65,MN,1727406330
522,mount isa,-20.7333,139.5,28.87,26,0,5.66,AU,1727406331
523,madingou,-4.1536,13.55,22.99,90,100,0.7,CG,1727406332
524,prince george,53.9166,-122.753,5.9,93,100,0.0,CA,1727406127
525,la passe,45.5549,-0.8967,15.4,76,100,10.47,FR,1727406334
526,fortuna,40.5982,-124.1573,12.74,85,0,3.6,US,1727406335
527,pangody,65.85,74.4859,1.25,71,100,6.62,RU,1727406309
528,kasimov,54.9411,41.3953,11.89,38,60,4.91,RU,1727406337
529,veraval,20.9,70.3667,26.07,91,100,5.75,IN,1727406339
530,satkania,22.0796,92.0572,28.55,78,98,1.83,BD,1727406340
531,broken hill,-31.95,141.4333,18.21,32,0,6.24,AU,1727406342
532,torbat-e jam,35.244,60.6225,16.05,43,2,7.32,IR,1727406343
533,prymors'k,46.7348,36.3443,17.69,76,54,6.56,UA,1727406344
534,malvan,16.0667,73.4667,27.78,81,53,6.15,IN,1727406345
535,kapoeta,4.7717,33.5903,21.52,85,25,2.03,SS,1727406346
536,boguchar,49.9358,40.545,10.25,43,46,3.53,RU,1727406348
537,champerico,14.3,-91.9167,27.31,78,98,6.21,GT,1727406349
538,burang,30.25,81.1667,9.15,73,95,1.8,CN,1727406350
539,dzhangala,49.2167,50.3333,9.96,36,0,3.72,KZ,1727406351
540,okhotsk,59.3833,143.3,12.05,52,2,0.91,RU,1727406352
541,great falls,47.5002,-111.3008,15.25,32,0,4.63,US,1727406353
542,mournies,35.4764,24.0092,18.22,94,20,0.0,GR,1727406354
543,kamaishi,39.2667,141.8833,23.06,85,92,1.51,JP,1727406355
544,al mayadin,35.0209,40.4535,25.37,27,0,3.44,SY,1727406357
545,tangalle,6.024,80.7911,29.12,68,95,6.05,LK,1727406358
546,farafangana,-22.8167,47.8333,18.75,92,0,1.4,MG,1727406359
547,huarmey,-10.0681,-78.1522,15.96,87,96,4.71,PE,1727406360
548,mandalgovi,45.7625,106.2708,16.53,51,99,0.46,MN,1727406361
549,patnanungan,14.7833,122.1833,25.91,89,100,2.32,PH,1727406362
550,buala,-8.145,159.5921,28.12,76,55,5.31,SB,1727406363
551,kolosovka,56.4678,73.611,2.02,73,17,2.0,RU,1727406365
552,luderitz,-26.6481,15.1594,13.23,83,100,10.11,NA,1727406366
553,norilsk,69.3535,88.2027,1.34,98,100,3.8,RU,1727406367
554,dodoma,-6.1722,35.7395,18.95,77,0,3.09,TZ,1727406368
555,songjianghe,42.1859,127.479,18.66,57,3,1.25,CN,1727406369
556,lakkha nevre,43.6103,45.2454,16.21,78,100,2.46,RU,1727406371
557,carovigno,40.708,17.655,20.1,85,4,3.65,IT,1727406372
558,carahue,-38.7,-73.1667,3.46,92,98,1.1,CL,1727406373
559,vasarosnameny,48.1333,22.3167,20.52,54,33,8.04,HU,1727406374
560,lanivtsi,49.8633,26.0908,17.91,56,93,6.68,UA,1727406376
561,chhor,25.5167,69.7667,29.73,64,14,6.26,PK,1727406377
562,polyarnyy,69.1989,33.4478,7.55,85,97,8.13,RU,1727406378
563,ilebo,-4.3167,20.5833,22.42,87,93,0.84,CD,1727406379
564,zaranj,30.9667,61.8833,22.09,39,0,13.4,AF,1727406380
565,rusera,25.75,86.0333,24.7,96,100,5.48,IN,1727406381
566,tocopilla,-22.092,-70.1979,16.57,78,13,1.56,CL,1727406382
567,batu pahat,1.8548,102.9325,28.91,70,98,1.58,MY,1727406383
568,vilyuysk,63.7553,121.6247,5.07,70,100,2.28,RU,1727406385
